[{"address_components":[{"long_name":"Kömür","short_name":"Kömür","types":["locality","political"]},{"long_name":"Hürriyet","short_name":"Hürriyet","types":["administrative_area_level_4","political"]},{"long_name":"Kömür","short_name":"Kömür","types":["administrative_area_level_3","political"]},{"long_name":"Adıyaman Merkez","short_name":"Adıyaman Merkez","types":["administrative_area_level_2","political"]},{"long_name":"Adıyaman","short_name":"Adıyaman","types":["administrative_area_level_1","political"]},{"long_name":"Turkey","short_name":"TR","types":["country","political"]},{"long_name":"02240","short_name":"02240","types":["postal_code"]}],"formatted_address":"Kömür, Hürriyet, 02240 Kömür/Adıyaman Merkez/Adıyaman, Turkey","geometry":{"location":{"lat":37.8679,"lng":38.4296999},"location_type":"APPROXIMATE","viewport":{"northeast":{"lat":37.8767079,"lng":38.4457073},"southwest":{"lat":37.859091,"lng":38.4136925}}},"place_id":"ChIJA7iFBm9EMxURCBFXHH3Wfws","types":["locality","political"]},{"address_components":[{"long_name":"Turkey","short_name":"TR","types":["country","political"]}],"formatted_address":"Kömür Mh. Adıyaman Kuyucak Yolu No:1 Pk:02000 Merkez/adıyaman, Turkey","geometry":{"location":{"lat":37.86581899999999,"lng":38.426646},"location_type":"GEOMETRIC_CENTER","viewport":{"northeast":{"lat":37.86716798029149,"lng":38.42799498029149},"southwest":{"lat":37.86447001970849,"lng":38.42529701970849}}},"place_id":"ChIJV8ygGXJEMxURjbL7qVVtsxA","plus_code":{"compound_code":"VC8G+8M Kömür, Hürriyet, Kömür/Adıyaman Merkez/Adıyaman, Turkey","global_code":"8G9WVC8G+8M"},"types":["establishment","health","pharmacy","point_of_interest","store"]},{"address_components":[{"long_name":"Kömür","short_name":"Kömür","types":["administrative_area_level_3","political"]},{"long_name":"Adıyaman Merkez","short_name":"Adıyaman Merkez","types":["administrative_area_level_2","political"]},{"long_name":"Adıyaman","short_name":"Adıyaman","types":["administrative_area_level_1","political"]},{"long_name":"Turkey","short_name":"TR","types":["country","political"]}],"formatted_address":"Kömür/Adıyaman Merkez/Adıyaman, Turkey","geometry":{"bounds":{"northeast":{"lat":37.8938879,"lng":38.478729},"southwest":{"lat":37.8275479,"lng":38.402818}},"location":{"lat":37.8645434,"lng":38.432407},"location_type":"APPROXIMATE","viewport":{"northeast":{"lat":37.8938879,"lng":38.478729},"southwest":{"lat":37.8275479,"lng":38.402818}}},"place_id":"ChIJGefs_25EMxURiKN8pnqfc84","types":["administrative_area_level_3","political"]}]