[{"address_components":[{"long_name":"Cemre","short_name":"Cemre","types":["locality","political"]},{"long_name":"Cemre","short_name":"Cemre","types":["administrative_area_level_4","political"]},{"long_name":"Kaş","short_name":"Kaş","types":["administrative_area_level_2","political"]},{"long_name":"Antalya","short_name":"Antalya","types":["administrative_area_level_1","political"]},{"long_name":"Turkey","short_name":"TR","types":["country","political"]},{"long_name":"07582","short_name":"07582","types":["postal_code"]}],"formatted_address":"Cemre, 07582 Kaş/Antalya, Turkey","geometry":{"location":{"lat":36.526888,"lng":29.648047},"location_type":"APPROXIMATE","viewport":{"northeast":{"lat":36.5358538,"lng":29.6640544},"southwest":{"lat":36.5179212,"lng":29.6320396}}},"place_id":"ChIJJ9r72v66wRQRsC6HJF_hq98","types":["locality","political"]},{"address_components":[{"long_name":"Cemre","short_name":"Cemre","types":["administrative_area_level_4","political"]},{"long_name":"Kaş","short_name":"Kaş","types":["administrative_area_level_2","political"]},{"long_name":"Antalya","short_name":"Antalya","types":["administrative_area_level_1","political"]},{"long_name":"Turkey","short_name":"TR","types":["country","political"]}],"formatted_address":"Cemre, Kaş/Antalya, Turkey","geometry":{"bounds":{"northeast":{"lat":36.5833721,"lng":29.7119691},"southwest":{"lat":36.461,"lng":29.548148}},"location":{"lat":36.5113654,"lng":29.638326},"location_type":"APPROXIMATE","viewport":{"northeast":{"lat":36.5833721,"lng":29.7119691},"southwest":{"lat":36.461,"lng":29.548148}}},"place_id":"ChIJIw9PEf26wRQRNurmbYlddnU","types":["administrative_area_level_4","political"]}]