[{"address_components":[{"long_name":"Sarıca","short_name":"Sarıca","types":["locality","political"]},{"long_name":"Sarıca","short_name":"Sarıca","types":["administrative_area_level_4","political"]},{"long_name":"İvrindi","short_name":"İvrindi","types":["administrative_area_level_2","political"]},{"long_name":"Balıkesir","short_name":"Balıkesir","types":["administrative_area_level_1","political"]},{"long_name":"Turkey","short_name":"TR","types":["country","political"]},{"long_name":"10772","short_name":"10772","types":["postal_code"]}],"formatted_address":"Sarıca, 10772 İvrindi/Balıkesir, Turkey","geometry":{"bounds":{"northeast":{"lat":39.6282229,"lng":27.4934789},"southwest":{"lat":39.621999,"lng":27.4865581}},"location":{"lat":39.626393,"lng":27.49034},"location_type":"APPROXIMATE","viewport":{"northeast":{"lat":39.6282229,"lng":27.4934789},"southwest":{"lat":39.621999,"lng":27.4865581}}},"place_id":"ChIJX_N3gTojtxQRQj1DncKqF3M","types":["locality","political"]},{"address_components":[{"long_name":"Sarıca","short_name":"Sarıca","types":["administrative_area_level_4","political"]},{"long_name":"İvrindi","short_name":"İvrindi","types":["administrative_area_level_2","political"]},{"long_name":"Balıkesir","short_name":"Balıkesir","types":["administrative_area_level_1","political"]},{"long_name":"Turkey","short_name":"TR","types":["country","political"]}],"formatted_address":"Sarıca, İvrindi/Balıkesir, Turkey","geometry":{"bounds":{"northeast":{"lat":39.6569,"lng":27.5039},"southwest":{"lat":39.5977819,"lng":27.480226}},"location":{"lat":39.6286185,"lng":27.4938098},"location_type":"APPROXIMATE","viewport":{"northeast":{"lat":39.6569,"lng":27.5039},"southwest":{"lat":39.5977819,"lng":27.480226}}},"place_id":"ChIJF6IDGzAjtxQR9kgreag7JvI","types":["administrative_area_level_4","political"]}]