[{"address_components":[{"long_name":"Yelkenli","short_name":"Yelkenli","types":["administrative_area_level_3","political"]},{"long_name":"Tatvan","short_name":"Tatvan","types":["administrative_area_level_2","political"]},{"long_name":"Bitlis","short_name":"Bitlis","types":["administrative_area_level_1","political"]},{"long_name":"Turkey","short_name":"TR","types":["country","political"]}],"formatted_address":"Yelkenli/Tatvan/Bitlis, Turkey","geometry":{"bounds":{"northeast":{"lat":38.604177,"lng":42.598722},"southwest":{"lat":38.464576,"lng":42.4798441}},"location":{"lat":38.5283495,"lng":42.5480312},"location_type":"APPROXIMATE","viewport":{"northeast":{"lat":38.604177,"lng":42.598722},"southwest":{"lat":38.464576,"lng":42.4798441}}},"place_id":"ChIJxQnoW59rDUARQhT28H_Pa04","types":["administrative_area_level_3","political"]},{"address_components":[{"long_name":"Yelkenli","short_name":"Yelkenli","types":["locality","political"]},{"long_name":"Yelkenli","short_name":"Yelkenli","types":["administrative_area_level_3","political"]},{"long_name":"Tatvan","short_name":"Tatvan","types":["administrative_area_level_2","political"]},{"long_name":"Bitlis","short_name":"Bitlis","types":["administrative_area_level_1","political"]},{"long_name":"Turkey","short_name":"TR","types":["country","political"]},{"long_name":"13201","short_name":"13201","types":["postal_code"]}],"formatted_address":"Yelkenli, 13201 Yelkenli/Tatvan/Bitlis, Turkey","geometry":{"bounds":{"northeast":{"lat":38.495525,"lng":42.5491719},"southwest":{"lat":38.4868801,"lng":42.52976}},"location":{"lat":38.490627,"lng":42.53457},"location_type":"APPROXIMATE","viewport":{"northeast":{"lat":38.495525,"lng":42.5491719},"southwest":{"lat":38.4868801,"lng":42.52976}}},"place_id":"ChIJbV8Kr5hrDUARmJV7KFI1UMU","types":["locality","political"]}]