[{"address_components":[{"long_name":"Sanayi Caddesi","short_name":"Sanayi Cd.","types":["route"]},{"long_name":"Yeni","short_name":"Yeni","types":["administrative_area_level_4","political"]},{"long_name":"Burdur Merkez","short_name":"Burdur Merkez","types":["administrative_area_level_2","political"]},{"long_name":"Burdur","short_name":"Burdur","types":["administrative_area_level_1","political"]},{"long_name":"Turkey","short_name":"TR","types":["country","political"]},{"long_name":"15030","short_name":"15030","types":["postal_code"]}],"formatted_address":"Yeni, Sanayi Cd., 15030 Burdur Merkez/Burdur, Turkey","geometry":{"bounds":{"northeast":{"lat":37.7261998,"lng":30.2970594},"southwest":{"lat":37.7235221,"lng":30.2963385}},"location":{"lat":37.7250246,"lng":30.2966676},"location_type":"GEOMETRIC_CENTER","viewport":{"northeast":{"lat":37.7262099302915,"lng":30.2980479302915},"southwest":{"lat":37.7235119697085,"lng":30.2953499697085}}},"place_id":"ChIJx4LlOTUsxBQRbjj7iUocKmI","types":["route"]}]