[{"address_components":[{"long_name":"Terminal Caddesi","short_name":"Terminal Cd.","types":["route"]},{"long_name":"Lalapaşa","short_name":"Lalapaşa","types":["administrative_area_level_4","political"]},{"long_name":"Yakutiye","short_name":"Yakutiye","types":["administrative_area_level_2","political"]},{"long_name":"Erzurum","short_name":"Erzurum","types":["administrative_area_level_1","political"]},{"long_name":"Turkey","short_name":"TR","types":["country","political"]},{"long_name":"25100","short_name":"25100","types":["postal_code"]}],"formatted_address":"Lalapaşa, Terminal Cd., 25100 Yakutiye/Erzurum, Turkey","geometry":{"bounds":{"northeast":{"lat":39.91215140000001,"lng":41.257401},"southwest":{"lat":39.9050846,"lng":41.2517513}},"location":{"lat":39.9086436,"lng":41.2548367},"location_type":"GEOMETRIC_CENTER","viewport":{"northeast":{"lat":39.91215140000001,"lng":41.257401},"southwest":{"lat":39.9050846,"lng":41.2517513}}},"place_id":"ChIJn3cFliJfbkAR7Qddq03VxqY","types":["route"]},{"address_components":[{"long_name":"Terminal Mahallesi","short_name":"Terminal","types":["colloquial_area","political"]},{"long_name":"Ömer Nasuhi Bilmen","short_name":"Ömer Nasuhi Bilmen","types":["administrative_area_level_4","political"]},{"long_name":"Yakutiye","short_name":"Yakutiye","types":["administrative_area_level_2","political"]},{"long_name":"Erzurum","short_name":"Erzurum","types":["administrative_area_level_1","political"]},{"long_name":"Turkey","short_name":"TR","types":["country","political"]},{"long_name":"25200","short_name":"25200","types":["postal_code"]}],"formatted_address":"Terminal, Ömer Nasuhi Bilmen, 25200 Yakutiye/Erzurum, Turkey","geometry":{"bounds":{"northeast":{"lat":39.933496,"lng":41.2649979},"southwest":{"lat":39.911547,"lng":41.2413422}},"location":{"lat":39.9189292,"lng":41.2510995},"location_type":"APPROXIMATE","viewport":{"northeast":{"lat":39.933496,"lng":41.2649979},"southwest":{"lat":39.911547,"lng":41.2413422}}},"place_id":"ChIJNbDFhklfbkARbG5SlgyImvE","types":["colloquial_area","political"]}]