[{"address_components":[{"long_name":"Yakacık Caddesi","short_name":"Yakacık Cd.","types":["route"]},{"long_name":"Kartal","short_name":"Kartal","types":["administrative_area_level_2","political"]},{"long_name":"İstanbul","short_name":"İstanbul","types":["administrative_area_level_1","political"]},{"long_name":"Turkey","short_name":"TR","types":["country","political"]}],"formatted_address":"Yakacık Cd., Kartal/İstanbul, Turkey","geometry":{"bounds":{"northeast":{"lat":40.902363,"lng":29.2073771},"southwest":{"lat":40.8887661,"lng":29.1906651}},"location":{"lat":40.8957093,"lng":29.1993802},"location_type":"GEOMETRIC_CENTER","viewport":{"northeast":{"lat":40.902363,"lng":29.2073771},"southwest":{"lat":40.8887661,"lng":29.1906651}}},"place_id":"ChIJ99AdkWLDyhQR8HT8DgF0okE","types":["route"]},{"address_components":[{"long_name":"Yakacık Yeni","short_name":"Yakacık Yeni","types":["administrative_area_level_4","political"]},{"long_name":"Kartal","short_name":"Kartal","types":["administrative_area_level_2","political"]},{"long_name":"İstanbul","short_name":"İstanbul","types":["administrative_area_level_1","political"]},{"long_name":"Turkey","short_name":"TR","types":["country","political"]},{"long_name":"34882","short_name":"34882","types":["postal_code"]}],"formatted_address":"Yakacık Yeni, 34882 Kartal/İstanbul, Turkey","geometry":{"bounds":{"northeast":{"lat":40.929303,"lng":29.231985},"southwest":{"lat":40.91875,"lng":29.215978}},"location":{"lat":40.9245484,"lng":29.2233608},"location_type":"APPROXIMATE","viewport":{"northeast":{"lat":40.929303,"lng":29.231985},"southwest":{"lat":40.91875,"lng":29.215978}}},"place_id":"ChIJ9-4--tbEyhQRzq7rFZQQ4jw","types":["administrative_area_level_4","political"]}]