[{"address_components":[{"long_name":"Kınalıada","short_name":"Kınalıada","types":["locality","political"]},{"long_name":"Kınalıada","short_name":"Kınalıada","types":["administrative_area_level_4","political"]},{"long_name":"Adalar","short_name":"Adalar","types":["administrative_area_level_2","political"]},{"long_name":"İstanbul","short_name":"İstanbul","types":["administrative_area_level_1","political"]},{"long_name":"Turkey","short_name":"TR","types":["country","political"]},{"long_name":"34977","short_name":"34977","types":["postal_code"]}],"formatted_address":"Kınalıada, 34977 Adalar/İstanbul, Turkey","geometry":{"bounds":{"northeast":{"lat":40.91456590000001,"lng":29.05723},"southwest":{"lat":40.9029099,"lng":29.041057}},"location":{"lat":40.90907,"lng":29.053205},"location_type":"APPROXIMATE","viewport":{"northeast":{"lat":40.91456590000001,"lng":29.05723},"southwest":{"lat":40.9029099,"lng":29.041057}}},"place_id":"ChIJZc-H8ILAyhQRjmDfEqh_E80","types":["locality","political"]},{"address_components":[{"long_name":"Kınalıada","short_name":"Kınalıada","types":["establishment","natural_feature"]},{"long_name":"Kınalıada","short_name":"Kınalıada","types":["administrative_area_level_4","political"]},{"long_name":"Adalar","short_name":"Adalar","types":["administrative_area_level_2","political"]},{"long_name":"İstanbul","short_name":"İstanbul","types":["administrative_area_level_1","political"]},{"long_name":"Turkey","short_name":"TR","types":["country","political"]},{"long_name":"34977","short_name":"34977","types":["postal_code"]}],"formatted_address":"Kınalıada, 34977 Adalar/İstanbul, Turkey","geometry":{"location":{"lat":40.9080556,"lng":29.0522222},"location_type":"APPROXIMATE","viewport":{"northeast":{"lat":40.9164878,"lng":29.0682296},"southwest":{"lat":40.8996223,"lng":29.0362148}}},"place_id":"ChIJw2YXooTAyhQRCIgjvJlvjDs","types":["establishment","natural_feature"]}]