[{"address_components":[{"long_name":"Pinarbaşı Bornova","short_name":"Pinarbaşı Bornova","types":["route"]},{"long_name":"Egemenlik","short_name":"Egemenlik","types":["administrative_area_level_4","political"]},{"long_name":"Bornova","short_name":"Bornova","types":["administrative_area_level_2","political"]},{"long_name":"İzmir","short_name":"İzmir","types":["administrative_area_level_1","political"]},{"long_name":"Turkey","short_name":"TR","types":["country","political"]},{"long_name":"35070","short_name":"35070","types":["postal_code"]}],"formatted_address":"Egemenlik, Pinarbaşı Bornova, 35070 Bornova/İzmir, Turkey","geometry":{"bounds":{"northeast":{"lat":38.4153242,"lng":27.2451981},"southwest":{"lat":38.4144259,"lng":27.2441646}},"location":{"lat":38.4150807,"lng":27.2449618},"location_type":"GEOMETRIC_CENTER","viewport":{"northeast":{"lat":38.4162240302915,"lng":27.2460303302915},"southwest":{"lat":38.4135260697085,"lng":27.2433323697085}}},"place_id":"ChIJPxiOO21juRQREo0Wr6blpSY","types":["route"]}]