[{"address_components":[{"long_name":"Talas","short_name":"Talas","types":["locality","political"]},{"long_name":"Talas","short_name":"Talas","types":["administrative_area_level_2","political"]},{"long_name":"Kayseri","short_name":"Kayseri","types":["administrative_area_level_1","political"]},{"long_name":"Turkey","short_name":"TR","types":["country","political"]}],"formatted_address":"Talas, Kayseri, Turkey","geometry":{"bounds":{"northeast":{"lat":38.719924,"lng":35.583131},"southwest":{"lat":38.668647,"lng":35.534232}},"location":{"lat":38.687501,"lng":35.555568},"location_type":"APPROXIMATE","viewport":{"northeast":{"lat":38.719924,"lng":35.583131},"southwest":{"lat":38.668647,"lng":35.534232}}},"place_id":"ChIJT7O1wVltKxURkcRD411K2rs","types":["locality","political"]},{"address_components":[{"long_name":"Endürlük","short_name":"Endürlük","types":["locality","political"]},{"long_name":"Endürlük","short_name":"Endürlük","types":["administrative_area_level_4","political"]},{"long_name":"Talas","short_name":"Talas","types":["administrative_area_level_2","political"]},{"long_name":"Kayseri","short_name":"Kayseri","types":["administrative_area_level_1","political"]},{"long_name":"Turkey","short_name":"TR","types":["country","political"]},{"long_name":"38280","short_name":"38280","types":["postal_code"]}],"formatted_address":"Endürlük, 38280 Talas/Kayseri, Turkey","geometry":{"location":{"lat":38.631207,"lng":35.547567},"location_type":"APPROXIMATE","viewport":{"northeast":{"lat":38.63992289999999,"lng":35.5635744},"southwest":{"lat":38.6224901,"lng":35.5315596}}},"place_id":"ChIJw8jo08YMKxURDv5W900KvNw","types":["locality","political"]},{"address_components":[{"long_name":"Yazılı","short_name":"Yazılı","types":["locality","political"]},{"long_name":"Yazılı","short_name":"Yazılı","types":["administrative_area_level_4","political"]},{"long_name":"Talas","short_name":"Talas","types":["administrative_area_level_2","political"]},{"long_name":"Kayseri","short_name":"Kayseri","types":["administrative_area_level_1","political"]},{"long_name":"Turkey","short_name":"TR","types":["country","political"]},{"long_name":"38280","short_name":"38280","types":["postal_code"]}],"formatted_address":"Yazılı, 38280 Talas/Kayseri, Turkey","geometry":{"location":{"lat":38.629983,"lng":35.704782},"location_type":"APPROXIMATE","viewport":{"northeast":{"lat":38.638699,"lng":35.7207894},"southwest":{"lat":38.6212659,"lng":35.6887746}}},"place_id":"ChIJnyG2NCxwKxURoFyo4BOmYHQ","types":["locality","political"]},{"address_components":[{"long_name":"Ardıç","short_name":"Ardıç","types":["locality","political"]},{"long_name":"Ardıç","short_name":"Ardıç","types":["administrative_area_level_4","political"]},{"long_name":"Talas","short_name":"Talas","types":["administrative_area_level_2","political"]},{"long_name":"Kayseri","short_name":"Kayseri","types":["administrative_area_level_1","political"]},{"long_name":"Turkey","short_name":"TR","types":["country","political"]},{"long_name":"38280","short_name":"38280","types":["postal_code"]}],"formatted_address":"Ardıç, 38280 Talas/Kayseri, Turkey","geometry":{"location":{"lat":38.608573,"lng":35.717401},"location_type":"APPROXIMATE","viewport":{"northeast":{"lat":38.6172916,"lng":35.7334084},"southwest":{"lat":38.5998533,"lng":35.7013936}}},"place_id":"ChIJT4Hz52lwKxURFqSt-oxCZDU","types":["locality","political"]},{"address_components":[{"long_name":"Akçakaya","short_name":"Akçakaya","types":["locality","political"]},{"long_name":"Akçakaya","short_name":"Akçakaya","types":["administrative_area_level_4","political"]},{"long_name":"Talas","short_name":"Talas","types":["administrative_area_level_2","political"]},{"long_name":"Kayseri","short_name":"Kayseri","types":["administrative_area_level_1","political"]},{"long_name":"Turkey","short_name":"TR","types":["country","political"]},{"long_name":"38280","short_name":"38280","types":["postal_code"]}],"formatted_address":"Akçakaya, 38280 Talas/Kayseri, Turkey","geometry":{"location":{"lat":38.6523899,"lng":35.572303},"location_type":"APPROXIMATE","viewport":{"northeast":{"lat":38.6611032,"lng":35.5883104},"southwest":{"lat":38.6436755,"lng":35.5562956}}},"place_id":"ChIJURxg_tZyKxURVnoQi7Otv1Q","types":["locality","political"]},{"address_components":[{"long_name":"Kepez","short_name":"Kepez","types":["locality","political"]},{"long_name":"Kepez","short_name":"Kepez","types":["administrative_area_level_4","political"]},{"long_name":"Talas","short_name":"Talas","types":["administrative_area_level_2","political"]},{"long_name":"Kayseri","short_name":"Kayseri","types":["administrative_area_level_1","political"]},{"long_name":"Turkey","short_name":"TR","types":["country","political"]},{"long_name":"38280","short_name":"38280","types":["postal_code"]}],"formatted_address":"Kepez, 38280 Talas/Kayseri, Turkey","geometry":{"location":{"lat":38.604329,"lng":35.692646},"location_type":"APPROXIMATE","viewport":{"northeast":{"lat":38.6130481,"lng":35.7086534},"southwest":{"lat":38.5956088,"lng":35.6766386}}},"place_id":"ChIJ-yjewwBxKxURdhm3uIEnAFg","types":["locality","political"]},{"address_components":[{"long_name":"Cebir","short_name":"Cebir","types":["locality","political"]},{"long_name":"Cebir","short_name":"Cebir","types":["administrative_area_level_4","political"]},{"long_name":"Talas","short_name":"Talas","types":["administrative_area_level_2","political"]},{"long_name":"Kayseri","short_name":"Kayseri","types":["administrative_area_level_1","political"]},{"long_name":"Turkey","short_name":"TR","types":["country","political"]},{"long_name":"38280","short_name":"38280","types":["postal_code"]}],"formatted_address":"Cebir, 38280 Talas/Kayseri, Turkey","geometry":{"location":{"lat":38.56264,"lng":35.621056},"location_type":"APPROXIMATE","viewport":{"northeast":{"lat":38.5713642,"lng":35.6370634},"southwest":{"lat":38.55391470000001,"lng":35.6050486}}},"place_id":"ChIJDVWmIE90KxURvEC5weu2oEY","types":["locality","political"]},{"address_components":[{"long_name":"Süleymanlı","short_name":"Süleymanlı","types":["locality","political"]},{"long_name":"Süleymanlı","short_name":"Süleymanlı","types":["administrative_area_level_4","political"]},{"long_name":"Talas","short_name":"Talas","types":["administrative_area_level_2","political"]},{"long_name":"Kayseri","short_name":"Kayseri","types":["administrative_area_level_1","political"]},{"long_name":"Turkey","short_name":"TR","types":["country","political"]},{"long_name":"38280","short_name":"38280","types":["postal_code"]}],"formatted_address":"Süleymanlı, 38280 Talas/Kayseri, Turkey","geometry":{"location":{"lat":38.579899,"lng":35.753732},"location_type":"APPROXIMATE","viewport":{"northeast":{"lat":38.5886211,"lng":35.7697394},"southwest":{"lat":38.5711758,"lng":35.7377246}}},"place_id":"ChIJi6G2XWF6KxURYpScWwX5cwY","types":["locality","political"]},{"address_components":[{"long_name":"Çatakdere","short_name":"Çatakdere","types":["locality","political"]},{"long_name":"Çatakdere","short_name":"Çatakdere","types":["administrative_area_level_4","political"]},{"long_name":"Talas","short_name":"Talas","types":["administrative_area_level_2","political"]},{"long_name":"Kayseri","short_name":"Kayseri","types":["administrative_area_level_1","political"]},{"long_name":"Turkey","short_name":"TR","types":["country","political"]},{"long_name":"38280","short_name":"38280","types":["postal_code"]}],"formatted_address":"Çatakdere, 38280 Talas/Kayseri, Turkey","geometry":{"location":{"lat":38.66476100000001,"lng":35.726886},"location_type":"APPROXIMATE","viewport":{"northeast":{"lat":38.6734728,"lng":35.7428934},"southwest":{"lat":38.6560481,"lng":35.7108786}}},"place_id":"ChIJI1U11wpvKxUR-nY_ydvXCDA","types":["locality","political"]},{"address_components":[{"long_name":"Sakaltutan","short_name":"Sakaltutan","types":["locality","political"]},{"long_name":"Sakaltutan","short_name":"Sakaltutan","types":["administrative_area_level_4","political"]},{"long_name":"Talas","short_name":"Talas","types":["administrative_area_level_2","political"]},{"long_name":"Kayseri","short_name":"Kayseri","types":["administrative_area_level_1","political"]},{"long_name":"Turkey","short_name":"TR","types":["country","political"]},{"long_name":"38280","short_name":"38280","types":["postal_code"]}],"formatted_address":"Sakaltutan, 38280 Talas/Kayseri, Turkey","geometry":{"location":{"lat":38.601348,"lng":35.751092},"location_type":"APPROXIMATE","viewport":{"northeast":{"lat":38.6100675,"lng":35.7670994},"southwest":{"lat":38.5926274,"lng":35.7350846}}},"place_id":"ChIJnc3Oypl6KxURCEdbpILSwHA","types":["locality","political"]}]