[{"address_components":[{"long_name":"Of","short_name":"Of","types":["locality","political"]},{"long_name":"Of","short_name":"Of","types":["administrative_area_level_2","political"]},{"long_name":"Trabzon","short_name":"Trabzon","types":["administrative_area_level_1","political"]},{"long_name":"Turkey","short_name":"TR","types":["country","political"]}],"formatted_address":"Of, Trabzon, Turkey","geometry":{"bounds":{"northeast":{"lat":40.95721899999999,"lng":40.2851039},"southwest":{"lat":40.935887,"lng":40.253495}},"location":{"lat":40.9434449,"lng":40.263324},"location_type":"APPROXIMATE","viewport":{"northeast":{"lat":40.95721899999999,"lng":40.2851039},"southwest":{"lat":40.935887,"lng":40.253495}}},"place_id":"ChIJdauzLC7UZUAR9vvWQ_he2S8","types":["locality","political"]},{"address_components":[{"long_name":"İrfanlı","short_name":"İrfanlı","types":["administrative_area_level_4","political"]},{"long_name":"Of","short_name":"Of","types":["administrative_area_level_3","political"]},{"long_name":"Of","short_name":"Of","types":["administrative_area_level_2","political"]},{"long_name":"Trabzon","short_name":"Trabzon","types":["administrative_area_level_1","political"]},{"long_name":"Turkey","short_name":"TR","types":["country","political"]},{"long_name":"61830","short_name":"61830","types":["postal_code"]}],"formatted_address":"İrfanlı, 61830 Of/Trabzon, Turkey","geometry":{"location":{"lat":40.9294617,"lng":40.2761887},"location_type":"GEOMETRIC_CENTER","viewport":{"northeast":{"lat":40.93081068029149,"lng":40.2775376802915},"southwest":{"lat":40.92811271970849,"lng":40.2748397197085}}},"place_id":"ChIJs0-XxaLWZUAR4GFqIn6KNms","plus_code":{"compound_code":"W7HG+QF Of, Trabzon, Turkey","global_code":"8HG2W7HG+QF"},"types":["establishment","point_of_interest","university"]}]